City_ID,City,Lat,Lng,Max Temp,Humidity,Cloudiness,Wind Speed,Country,Date
0,Busselton,-33.65,115.3333,69.55,84,97,9.37,AU,2022-04-02 19:55:31
1,Coahuayana,18.7333,-103.6833,86.61,43,87,8.97,MX,2022-04-02 19:55:31
2,Pacifica,37.6138,-122.4869,75.43,68,40,5.01,US,2022-04-02 19:53:42
3,Hobart,-42.8794,147.3294,55.26,84,100,8.05,AU,2022-04-02 19:51:50
4,Avarua,-21.2078,-159.775,84.25,70,66,3.44,CK,2022-04-02 19:55:32
5,Albany,42.6001,-73.9662,50.58,37,17,4.0,US,2022-04-02 19:50:52
6,Kenai,60.5544,-151.2583,35.69,64,0,0.0,US,2022-04-02 19:55:32
7,Vaini,-21.2,-175.2,73.56,100,75,0.0,TO,2022-04-02 19:55:33
8,Maceio,-9.6658,-35.7353,83.64,65,0,11.5,BR,2022-04-02 19:55:33
9,Ancud,-41.8697,-73.8203,48.22,60,71,16.73,CL,2022-04-02 19:55:33
10,Tuktoyaktuk,69.4541,-133.0374,-16.6,76,75,11.5,CA,2022-04-02 19:55:34
11,Port Blair,11.6667,92.75,82.44,78,40,2.3,IN,2022-04-02 19:55:34
12,Saint George,37.1041,-113.5841,81.63,20,0,5.01,US,2022-04-02 19:52:31
13,Bluff,-46.6,168.3333,57.0,73,85,20.18,NZ,2022-04-02 19:55:34
14,Tasiilaq,65.6145,-37.6368,27.12,94,100,24.34,GL,2022-04-02 19:55:35
15,Vardo,70.3705,31.1107,26.91,69,100,5.26,NO,2022-04-02 19:55:35
16,Kavieng,-2.5744,150.7967,76.66,91,100,4.79,PG,2022-04-02 19:55:35
17,Tiksi,71.6872,128.8694,-6.88,100,100,4.23,RU,2022-04-02 19:55:36
18,Victoria,22.2855,114.1577,62.26,67,99,11.01,HK,2022-04-02 19:55:01
19,Punta Arenas,-53.15,-70.9167,42.91,87,75,9.22,CL,2022-04-02 19:55:36
20,Mataura,-46.1927,168.8643,47.79,95,68,2.86,NZ,2022-04-02 19:55:36
21,Cabo San Lucas,22.8909,-109.9124,79.61,62,68,10.8,MX,2022-04-02 19:51:59
22,Georgetown,5.4112,100.3354,78.73,93,20,5.01,MY,2022-04-02 19:51:45
23,Constitucion,-35.3333,-72.4167,63.09,78,33,16.89,CL,2022-04-02 19:55:37
24,Rikitea,-23.1203,-134.9692,74.3,56,23,6.33,PF,2022-04-02 19:55:37
25,Ushuaia,-54.8,-68.3,40.66,93,100,4.61,AR,2022-04-02 19:53:13
26,Kapaa,22.0752,-159.319,76.98,92,71,4.0,US,2022-04-02 19:55:38
27,Narsaq,60.9167,-46.05,38.43,91,99,2.21,GL,2022-04-02 19:55:38
28,Norman Wells,65.282,-126.8329,-5.76,49,20,5.75,CA,2022-04-02 19:55:38
29,Lata,40.1629,-8.3327,44.74,57,35,3.78,PT,2022-04-02 19:55:39
30,Yellowknife,62.456,-114.3525,3.29,46,20,5.75,CA,2022-04-02 19:55:39
31,Upernavik,72.7868,-56.1549,14.18,94,99,12.71,GL,2022-04-02 19:55:40
32,Tura,25.5198,90.2201,69.51,90,5,3.33,IN,2022-04-02 19:55:40
33,Praia Da Vitoria,38.7333,-27.0667,64.65,72,20,9.53,PT,2022-04-02 19:55:40
34,Vila Franca Do Campo,37.7167,-25.4333,61.21,78,13,4.47,PT,2022-04-02 19:55:41
35,Esperance,-33.8667,121.9,64.24,55,3,12.84,AU,2022-04-02 19:55:41
36,Chokurdakh,70.6333,147.9167,-2.69,94,100,4.94,RU,2022-04-02 19:55:41
37,Mar Del Plata,-38.0023,-57.5575,69.87,58,0,20.0,AR,2022-04-02 19:55:42
38,Asau,46.4333,26.4,47.32,82,99,0.56,RO,2022-04-02 19:55:42
39,Hofn,64.2539,-15.2082,43.72,72,100,7.16,IS,2022-04-02 19:55:42
40,Port Hedland,-20.3167,118.5667,82.45,74,52,8.05,AU,2022-04-02 19:55:43
41,Mato Verde,-15.3972,-42.8664,87.57,34,12,6.04,BR,2022-04-02 19:55:43
42,Waipawa,-41.4122,175.5153,55.4,91,35,2.51,NZ,2022-04-02 19:55:43
43,Villazon,-22.0866,-65.5942,68.38,12,5,17.18,BO,2022-04-02 19:55:44
44,Hilo,19.7297,-155.09,73.26,90,100,5.75,US,2022-04-02 19:55:44
45,Spirit River,55.7833,-118.8361,37.83,29,9,14.14,CA,2022-04-02 19:56:46
46,Lebu,-37.6167,-73.65,59.25,94,100,9.4,CL,2022-04-02 19:56:46
47,Bonfim,3.0833,-59.95,92.79,42,90,8.88,BR,2022-04-02 19:56:46
48,Port Elizabeth,-33.918,25.5701,64.09,92,40,2.3,ZA,2022-04-02 19:53:16
49,Nome,64.5011,-165.4064,16.16,53,0,4.79,US,2022-04-02 19:56:47
50,Port Alfred,-33.5906,26.891,65.17,89,100,3.0,ZA,2022-04-02 19:56:47
51,Hithadhoo,-0.6,73.0833,82.99,69,14,5.23,MV,2022-04-02 19:56:47
52,Kodiak,57.79,-152.4072,38.71,81,75,3.44,US,2022-04-02 19:56:48
53,Morganton,35.7454,-81.6848,63.64,39,0,6.91,US,2022-04-02 19:56:48
54,Jamalpur,24.9167,89.9333,75.36,87,67,5.26,BD,2022-04-02 19:56:48
55,Komsomolskiy,40.4272,71.7189,57.92,58,1,6.91,UZ,2022-04-02 19:56:49
56,Tambura,5.6,27.4667,82.87,41,73,4.81,SS,2022-04-02 19:56:49
57,Ribeira Grande,38.5167,-28.7,61.2,67,40,16.11,PT,2022-04-02 19:56:49
58,Chazuta,-6.5742,-76.1367,85.05,71,91,0.36,PE,2022-04-02 19:56:50
59,Dingle,10.9995,122.6711,75.16,85,100,6.91,PH,2022-04-02 19:56:50
60,Madera,37.1666,-119.8343,79.52,46,100,5.82,US,2022-04-02 19:56:50
61,Saint-Philippe,-21.3585,55.7679,76.59,97,100,22.3,RE,2022-04-02 19:56:51
62,Bredasdorp,-34.5322,20.0403,61.47,79,65,13.31,ZA,2022-04-02 19:56:51
63,Mitsamiouli,-11.3847,43.2844,81.32,76,3,5.5,KM,2022-04-02 19:56:51
64,Zhigansk,66.7697,123.3711,-2.47,100,100,4.52,RU,2022-04-02 19:56:52
65,Payo,-3.7508,103.6372,73.04,93,96,2.28,ID,2022-04-02 19:56:52
66,Castro,-24.7911,-50.0119,61.7,91,100,6.31,BR,2022-04-02 19:56:52
67,Ayorou,14.7308,0.9174,90.68,8,46,7.47,NE,2022-04-02 19:56:53
68,Atuona,-9.8,-139.0333,79.29,75,6,15.1,PF,2022-04-02 19:56:53
69,Chuy,-33.6971,-53.4616,69.3,50,5,10.85,UY,2022-04-02 19:56:53
70,Barrow,71.2906,-156.7887,-14.22,99,94,11.77,US,2022-04-02 19:56:54
71,Fort Nelson,58.8053,-122.7002,15.39,62,75,0.0,CA,2022-04-02 19:56:54
72,Tacuarembo,-31.7333,-55.9833,73.36,48,0,7.38,UY,2022-04-02 19:56:54
73,Caravelas,-17.7125,-39.2481,80.71,71,0,6.35,BR,2022-04-02 19:56:55
74,Ningyang,35.7642,116.7914,44.98,61,0,2.66,CN,2022-04-02 19:56:55
75,Atar,20.5169,-13.0499,82.58,11,2,9.51,MR,2022-04-02 19:56:55
76,Half Moon Bay,37.4636,-122.4286,76.53,60,40,1.01,US,2022-04-02 19:56:56
77,Lavrentiya,65.5833,-171.0,7.5,75,1,12.28,RU,2022-04-02 19:56:56
78,Cururupu,-1.8283,-44.8683,80.89,81,62,5.06,BR,2022-04-02 19:56:56
79,Fairbanks,64.8378,-147.7164,19.24,57,100,5.75,US,2022-04-02 19:55:02
80,Pascagoula,30.3658,-88.5561,75.56,48,55,6.24,US,2022-04-02 19:56:57
81,Sinegorye,62.0788,150.477,-1.55,96,100,0.85,RU,2022-04-02 19:56:57
82,Jamestown,42.097,-79.2353,49.51,35,100,4.0,US,2022-04-02 19:56:57
83,Souillac,-20.5167,57.5167,73.78,100,75,9.22,MU,2022-04-02 19:56:58
84,Kiama,-34.6833,150.8667,63.57,78,97,8.99,AU,2022-04-02 19:56:58
85,Grand Gaube,-20.0064,57.6608,74.37,91,100,7.0,MU,2022-04-02 19:56:58
86,Bethel,41.3712,-73.414,55.02,40,16,1.99,US,2022-04-02 19:54:21
87,San Julian,21.0167,-102.1667,84.65,9,4,8.52,MX,2022-04-02 19:56:59
88,Najran,17.4924,44.1277,70.45,17,0,1.5,SA,2022-04-02 19:56:59
89,Ada,43.4166,-116.1262,56.91,37,25,20.0,US,2022-04-02 19:56:59
90,Ngunguru,-35.6167,174.5,64.36,81,99,3.11,NZ,2022-04-02 19:57:01
91,Kruisfontein,-34.0033,24.7314,60.89,85,99,7.7,ZA,2022-04-02 19:57:01
92,Garwolin,51.8975,21.6147,33.84,93,100,1.01,PL,2022-04-02 19:58:03
93,Haverfordwest,51.8017,-4.9691,41.56,87,8,6.93,GB,2022-04-02 19:58:03
94,Mangan,27.5167,88.5333,70.7,90,100,0.2,IN,2022-04-02 19:58:03
95,Geraldton,-28.7667,114.6,73.81,94,75,6.91,AU,2022-04-02 19:58:04
96,Qaanaaq,77.484,-69.3632,14.11,82,89,4.21,GL,2022-04-02 19:58:04
97,Roald,62.5833,6.1333,39.16,87,40,9.22,NO,2022-04-02 19:58:05
98,Cap Malheureux,-19.9842,57.6142,74.46,91,100,7.0,MU,2022-04-02 19:58:05
99,Flin Flon,54.7682,-101.865,26.44,63,75,3.44,CA,2022-04-02 19:58:05
100,Bengkulu,-3.8004,102.2655,75.6,81,100,5.39,ID,2022-04-02 19:58:06
101,Mata,40.683,-7.4592,40.42,55,21,4.12,PT,2022-04-02 19:58:06
102,Ayr,55.4627,-4.6339,42.78,65,20,3.44,GB,2022-04-02 19:58:07
103,Pacific Grove,36.6177,-121.9166,68.38,77,20,8.01,US,2022-04-02 19:53:29
104,Ponta Do Sol,32.6667,-17.1,63.23,82,100,7.45,PT,2022-04-02 19:58:07
105,Haines Junction,60.7522,-137.5108,35.55,48,97,5.75,CA,2022-04-02 19:58:07
106,Aswan,24.0934,32.907,92.5,10,0,6.91,EG,2022-04-02 19:58:08
107,Waddan,29.1614,16.139,76.23,15,100,13.27,LY,2022-04-02 19:58:08
108,Butaritari,3.0707,172.7902,81.43,76,86,16.58,KI,2022-04-02 19:58:08
109,Rio Gallegos,-51.6226,-69.2181,53.65,54,40,19.57,AR,2022-04-02 19:58:09
110,Bambous Virieux,-20.3428,57.7575,74.21,100,75,9.22,MU,2022-04-02 19:58:09
111,Hermanus,-34.4187,19.2345,62.8,79,98,17.22,ZA,2022-04-02 19:58:09
112,New Norfolk,-42.7826,147.0587,54.9,68,92,0.85,AU,2022-04-02 19:58:10
113,Yongan,39.6957,113.6871,37.69,26,20,3.85,CN,2022-04-02 19:58:10
114,Camacha,33.0833,-16.3333,58.42,77,20,10.36,PT,2022-04-02 19:58:11
115,Tungor,53.3808,142.9564,15.58,93,85,5.75,RU,2022-04-02 19:58:11
116,Cape Town,-33.9258,18.4232,65.26,71,20,14.97,ZA,2022-04-02 19:58:11
117,Mount Gambier,-37.8333,140.7667,53.51,94,100,6.91,AU,2022-04-02 19:58:12
118,Thinadhoo,0.5333,72.9333,82.87,69,9,4.14,MV,2022-04-02 19:58:12
119,Valparaiso,-33.0393,-71.6273,62.24,87,100,12.66,CL,2022-04-02 19:58:13
120,Khatanga,71.9667,102.5,-0.83,98,100,6.67,RU,2022-04-02 19:58:13
121,Kloulklubed,7.0419,134.2556,82.47,71,89,2.55,PW,2022-04-02 19:58:13
122,Kochevo,59.5994,54.3125,21.76,92,100,6.87,RU,2022-04-02 19:58:14
123,Hailey,43.5196,-114.3153,50.79,33,3,13.0,US,2022-04-02 19:58:14
124,Touros,-5.1989,-35.4608,81.28,78,91,12.03,BR,2022-04-02 19:58:14
125,Galesong,-5.3166,119.3661,77.02,80,100,2.82,ID,2022-04-02 19:58:15
126,Hami,42.8,93.45,52.88,15,58,5.01,CN,2022-04-02 19:58:15
127,Henties Bay,-22.116,14.2845,61.25,84,0,10.27,NA,2022-04-02 19:58:16
128,Butler,39.4501,-84.5666,52.14,50,75,11.5,US,2022-04-02 19:56:27
129,Bonavista,48.6499,-53.1147,35.06,96,100,20.85,CA,2022-04-02 19:58:16
130,Ruteng,-8.6136,120.4721,60.73,93,23,1.39,ID,2022-04-02 19:58:17
131,El Alto,-4.2714,-81.2147,85.66,69,66,14.74,PE,2022-04-02 19:58:18
132,Pisco,-13.7,-76.2167,73.45,64,0,16.11,PE,2022-04-02 19:58:18
133,Northam,51.0333,-4.2167,40.39,73,20,4.9,GB,2022-04-02 19:58:19
134,Dauphin,51.1494,-100.0502,33.94,60,100,8.05,CA,2022-04-02 19:58:19
135,Iquitos,-3.7481,-73.2472,75.24,88,75,2.3,PE,2022-04-02 19:54:47
136,Fortuna,40.5982,-124.1573,61.86,57,0,13.8,US,2022-04-02 19:58:20
137,Ilebo,-4.3167,20.5833,68.7,99,100,0.78,CD,2022-04-02 19:58:20
138,Mabaruma,8.2,-59.7833,77.9,92,80,5.91,GY,2022-04-02 19:59:21
139,Pevek,69.7008,170.3133,-7.94,96,100,1.9,RU,2022-04-02 19:59:22
140,Qasigiannguit,68.8193,-51.1922,32.61,88,81,4.09,GL,2022-04-02 19:59:22
141,Opatija,45.3392,14.3083,43.74,84,100,2.35,HR,2022-04-02 19:59:22
142,Grindavik,63.8424,-22.4338,46.35,100,75,17.27,IS,2022-04-02 19:59:23
143,Puerto Ayora,-0.7393,-90.3518,85.96,90,48,4.0,EC,2022-04-02 19:59:23
144,Helena,46.5927,-112.0361,44.82,69,100,14.0,US,2022-04-02 19:59:23
145,Steamboat Springs,40.485,-106.8317,55.54,36,0,8.05,US,2022-04-02 19:58:16
146,Baghmara,23.795,86.2085,79.74,78,1,6.98,IN,2022-04-02 19:59:24
147,Manavalakurichi,8.1333,77.3,80.01,81,12,6.31,IN,2022-04-02 19:59:24
148,Sur,22.5667,59.5289,82.71,38,54,9.26,OM,2022-04-02 19:59:24
149,Sun City West,33.662,-112.3413,86.52,22,0,5.99,US,2022-04-02 19:59:25
150,Severo-Kurilsk,50.6789,156.125,27.59,66,100,28.34,RU,2022-04-02 19:59:25
151,Saint-Lo,49.1162,-1.0903,39.63,68,16,4.94,FR,2022-04-02 19:59:25
152,Portland,45.5234,-122.6762,57.97,60,57,5.01,US,2022-04-02 19:58:19
153,Tuatapere,-46.1333,167.6833,48.47,91,40,2.89,NZ,2022-04-02 19:59:26
154,Douentza,14.9951,-2.9517,90.91,7,5,6.64,ML,2022-04-02 19:59:26
155,Yulara,-25.2406,130.9889,57.04,44,0,6.91,AU,2022-04-02 19:56:34
156,Comodoro Rivadavia,-45.8667,-67.5,75.06,33,20,14.97,AR,2022-04-02 19:59:27
157,Sao Filipe,14.8961,-24.4956,71.56,79,12,9.86,CV,2022-04-02 19:59:27
158,Eirunepe,-6.6603,-69.8736,79.77,66,93,2.1,BR,2022-04-02 19:59:28
159,Fallon,39.4735,-118.7774,65.91,24,89,11.81,US,2022-04-02 19:59:28
160,Klaksvik,62.2266,-6.589,43.72,86,100,19.44,FO,2022-04-02 19:59:28
161,Youkounkoun,12.5333,-13.1333,93.02,14,92,1.36,GN,2022-04-02 19:59:28
162,Lazaro Cardenas,17.9583,-102.2,81.03,55,91,11.23,MX,2022-04-02 19:59:29
163,Hirara,24.8,125.2833,65.84,86,100,30.29,JP,2022-04-02 19:59:29
164,Saint-Francois,46.4154,3.9054,33.67,85,75,9.22,FR,2022-04-02 19:59:30
165,Minden,52.2833,8.9167,35.98,55,73,2.3,DE,2022-04-02 19:59:30
166,Harpanahalli,14.8,75.9833,76.8,66,14,9.84,IN,2022-04-02 19:59:30
167,Lasa,46.6166,10.7002,32.36,94,99,7.11,IT,2022-04-02 19:59:31
168,Thompson,55.7435,-97.8558,24.96,46,40,2.3,CA,2022-04-02 19:59:31
169,Belyy Yar,53.6039,91.3903,35.85,93,75,6.71,RU,2022-04-02 19:59:31
170,Enid,36.3956,-97.8784,68.99,33,20,9.22,US,2022-04-02 19:58:31
171,Sabha,27.0377,14.4283,80.58,14,100,10.04,LY,2022-04-02 19:59:32
172,Brae,60.3964,-1.353,40.6,62,99,13.76,GB,2022-04-02 19:59:32
173,Melfi,40.9965,15.6514,39.49,90,43,8.37,IT,2022-04-02 19:59:33
174,Saldanha,-33.0117,17.9442,68.05,72,0,15.23,ZA,2022-04-02 19:59:33
175,Alamos,27.0167,-108.9333,88.43,13,4,7.34,MX,2022-04-02 19:57:53
176,Nikolskoye,59.7035,30.7861,28.8,96,9,3.49,RU,2022-04-02 19:59:33
177,Dawlatabad,36.4141,64.9053,61.93,28,0,6.11,AF,2022-04-02 19:59:34
178,Gradignan,44.7726,-0.6139,43.34,64,75,4.61,FR,2022-04-02 19:59:34
179,Evensk,61.95,159.2333,16.25,80,100,10.29,RU,2022-04-02 19:59:34
180,Sucua,-2.4667,-78.1667,77.74,69,40,11.5,EC,2022-04-02 19:59:35
181,Banda Aceh,5.5577,95.3222,79.25,81,100,3.38,ID,2022-04-02 19:59:35
182,Carnarvon,-24.8667,113.6333,77.09,82,10,11.16,AU,2022-04-02 20:00:36
183,Moron,-34.6534,-58.6198,71.8,50,0,10.07,AR,2022-04-02 20:00:37
184,Kahului,20.8947,-156.47,78.96,84,43,11.99,US,2022-04-02 20:00:37
185,Faanui,-16.4833,-151.75,81.45,77,53,9.01,PF,2022-04-02 20:00:38
186,San Ignacio,17.1561,-89.0714,95.27,36,0,8.72,BZ,2022-04-02 20:00:38
187,Chimoio,-19.1164,33.4833,66.58,99,18,3.47,MZ,2022-04-02 20:00:38
188,Port Lincoln,-34.7333,135.8667,59.52,81,34,7.47,AU,2022-04-02 20:00:39
189,Leningradskiy,69.3833,178.4167,-7.17,97,100,9.89,RU,2022-04-02 20:00:39
190,Longyearbyen,78.2186,15.6401,1.24,71,20,9.22,SJ,2022-04-02 20:00:39
191,Vila,42.0304,-8.1588,41.88,69,0,5.06,PT,2022-04-02 19:59:22
192,Yar-Sale,66.8333,70.8333,-0.47,95,15,8.19,RU,2022-04-02 20:00:40
193,Katsuura,35.1333,140.3,51.98,69,100,11.16,JP,2022-04-02 20:00:40
194,Meulaboh,4.1363,96.1285,77.68,85,96,1.81,ID,2022-04-02 19:58:33
195,Naze,28.3667,129.4833,61.72,71,98,14.74,JP,2022-04-02 19:56:24
196,Berdigestyakh,62.0989,126.6992,19.6,96,100,5.39,RU,2022-04-02 20:00:41
197,Serik,36.9169,31.0989,59.76,60,86,5.57,TR,2022-04-02 20:00:41
198,Salalah,17.0151,54.0924,78.8,53,93,2.82,OM,2022-04-02 20:00:42
199,Taboga,46.2663,13.1092,44.83,79,100,4.94,IT,2022-04-02 20:00:42
200,Mahebourg,-20.4081,57.7,74.25,84,100,18.39,MU,2022-04-02 20:00:42
201,Port Hardy,50.6996,-127.4199,43.61,89,100,16.2,CA,2022-04-02 20:00:24
202,Kovernino,57.1253,43.8142,31.51,96,100,12.12,RU,2022-04-02 20:00:43
203,Toropets,56.4978,31.6353,28.54,85,100,11.3,RU,2022-04-02 20:00:43
204,Muli,2.9167,73.5667,82.69,68,14,2.28,MV,2022-04-02 20:00:43
205,Calvinia,-31.4707,19.776,61.29,57,4,8.77,ZA,2022-04-02 20:00:44
206,Manaskent,42.7275,47.6785,45.77,93,0,4.47,RU,2022-04-02 20:00:44
207,Coihaique,-45.5752,-72.0662,49.06,66,14,11.27,CL,2022-04-02 20:00:44
208,Umtata,-31.5889,28.7844,60.01,99,100,3.87,ZA,2022-04-02 20:00:45
209,Uddevalla,58.3478,11.9424,36.07,75,21,4.56,SE,2022-04-02 20:00:45
210,Banjar,-8.19,114.9675,75.83,89,30,4.25,ID,2022-04-02 20:00:46
211,Verkhnetulomskiy,68.6073,31.7962,17.73,94,100,4.07,RU,2022-04-02 20:00:46
212,Sao Joao Da Barra,-21.6403,-41.0511,79.5,80,17,8.52,BR,2022-04-02 20:00:46
213,Srivardhan,18.0333,73.0167,77.85,74,100,1.72,IN,2022-04-02 20:00:47
214,Kazerun,29.6195,51.6541,68.4,24,9,1.63,IR,2022-04-02 20:00:47
215,Luderitz,-26.6481,15.1594,61.27,79,0,14.38,NA,2022-04-02 20:00:47
216,Erenhot,43.6475,111.9767,42.08,29,4,17.52,CN,2022-04-02 20:00:48
217,Mayya,61.7333,130.2811,18.72,96,100,5.3,RU,2022-04-02 20:00:48
218,La Palma,33.8464,-118.0467,69.24,70,100,4.61,US,2022-04-02 20:00:48
219,Tabou,4.423,-7.3528,79.52,87,100,8.93,CI,2022-04-02 20:00:49
220,Dombarovskiy,50.7587,59.5386,35.4,100,100,8.72,RU,2022-04-02 20:00:49
221,Cayenne,4.9333,-52.3333,80.1,1,75,3.0,GF,2022-04-02 19:56:29
222,Matara,5.9485,80.5353,76.23,89,22,2.73,LK,2022-04-02 20:00:50
223,Novikovo,51.1537,37.8879,52.23,83,61,19.08,RU,2022-04-02 20:00:50
224,Saint-Pierre,-21.3393,55.4781,76.68,86,75,4.61,RE,2022-04-02 20:00:50
225,Huangnihe,43.5583,128.0239,32.85,52,31,4.43,CN,2022-04-02 20:00:51
226,Vesyegonsk,58.664,37.2604,24.62,88,100,9.08,RU,2022-04-02 20:00:52
227,Cabedelo,-6.9811,-34.8339,81.59,75,53,12.82,BR,2022-04-02 20:00:52
228,San Patricio,28.017,-97.5169,89.69,41,0,8.57,US,2022-04-02 20:00:53
229,Provideniya,64.3833,-173.3,14.27,62,0,9.15,RU,2022-04-02 20:00:53
230,Mayumba,-3.432,10.6554,78.01,89,100,7.38,GA,2022-04-02 20:01:55
231,Ahipara,-35.1667,173.1667,64.62,83,100,2.86,NZ,2022-04-02 20:01:55
232,Mangrol,21.1167,70.1167,76.98,82,0,9.08,IN,2022-04-02 19:58:51
233,Maiduguri,11.8464,13.1603,88.68,7,99,9.84,NG,2022-04-02 20:01:56
234,Omboue,-1.5746,9.2618,74.75,92,87,4.65,GA,2022-04-02 20:01:56
235,Roura,4.7263,-52.3274,79.97,94,75,1.14,GF,2022-04-02 20:01:56
236,Paramonga,-10.6667,-77.8333,73.35,73,81,10.58,PE,2022-04-02 20:01:57
237,Cidreira,-30.1811,-50.2056,70.99,73,5,15.37,BR,2022-04-02 19:59:42
238,Tessalit,20.1986,1.0114,90.41,10,0,10.04,ML,2022-04-02 20:01:57
239,East London,-33.0153,27.9116,66.09,86,100,9.95,ZA,2022-04-02 20:01:57
240,Bandraboua,-12.7044,45.1223,82.08,72,11,3.8,YT,2022-04-02 20:01:58
241,Port-Gentil,-0.7193,8.7815,80.2,75,89,5.59,GA,2022-04-02 20:01:58
242,Gat,31.61,34.7642,71.4,40,100,2.24,IL,2022-04-02 20:01:58
243,Abaza,52.655,90.0928,35.8,96,100,3.96,RU,2022-04-02 20:01:59
244,Omsukchan,62.5333,155.8,-0.98,98,100,2.71,RU,2022-04-02 20:01:59
245,Tongliao,43.6125,122.2653,41.32,32,73,11.72,CN,2022-04-02 20:00:26
246,Bathsheba,13.2167,-59.5167,80.19,69,67,19.15,BB,2022-04-02 20:02:00
247,Fuyu,45.1833,124.8167,41.77,37,88,13.87,CN,2022-04-02 20:02:00
248,Sabzevar,36.2126,57.6819,64.81,17,5,7.2,IR,2022-04-02 20:02:00
249,Atasu,48.6814,71.6433,26.38,80,8,4.34,KZ,2022-04-02 20:02:01
250,Fengrun,39.8333,118.1167,45.63,43,1,3.96,CN,2022-04-02 20:02:01
251,Port Keats,-14.25,129.55,77.88,63,18,0.92,AU,2022-04-02 20:02:01
252,Zhanaozen,43.3,52.8,62.78,31,0,17.27,KZ,2022-04-02 20:02:02
253,Kathmandu,27.7167,85.3167,68.22,88,75,2.3,NP,2022-04-02 19:58:01
254,Flinders,-34.5833,150.8552,63.37,77,92,7.0,AU,2022-04-02 20:02:02
255,Micheweni,-4.9667,39.8333,81.81,78,48,7.52,TZ,2022-04-02 20:02:03
256,Reconquista,-29.15,-59.65,71.8,56,71,6.2,AR,2022-04-02 20:02:03
257,Port-Cartier,50.0334,-66.8654,38.75,79,90,19.51,CA,2022-04-02 20:02:04
258,Strezhevoy,60.7333,77.5889,15.67,94,93,5.12,RU,2022-04-02 20:02:04
259,Mitu,1.1983,-70.1733,77.9,92,75,4.05,CO,2022-04-02 20:02:04
260,Manta,-0.95,-80.7333,80.94,77,92,9.75,EC,2022-04-02 20:02:05
261,Ilulissat,69.2167,-51.1,33.82,60,20,3.44,GL,2022-04-02 20:02:05
262,Gobabis,-22.45,18.9667,68.36,68,7,7.47,NA,2022-04-02 20:02:06
263,Saskylakh,71.9167,114.0833,1.38,97,98,9.13,RU,2022-04-02 20:02:06
264,Bangassou,4.7413,22.8184,74.05,83,99,6.33,CF,2022-04-02 20:02:06
265,Porto Velho,-8.7619,-63.9039,75.25,73,100,2.3,BR,2022-04-02 20:00:05
266,Sorland,67.667,12.6934,33.96,56,100,22.95,NO,2022-04-02 19:59:41
267,Kankaanpaa,61.8,22.4167,32.76,95,98,6.58,FI,2022-04-02 20:02:07
268,Airai,-8.9266,125.4092,56.61,71,53,1.7,TL,2022-04-02 19:58:37
269,Ust-Uda,54.1742,103.0304,32.2,91,100,9.01,RU,2022-04-02 20:02:07
270,Kerema,-7.9631,145.7785,76.57,84,100,3.58,PG,2022-04-02 20:02:08
271,Guarapari,-20.6667,-40.4975,82.89,82,21,8.01,BR,2022-04-02 20:02:08
272,Dandong,40.1292,124.3947,39.13,63,0,2.13,CN,2022-04-02 20:02:09
273,Imphal,24.8167,93.95,65.23,81,5,2.17,IN,2022-04-02 20:02:10
274,Hobyo,5.3505,48.5268,81.7,72,47,12.12,SO,2022-04-02 20:02:11
275,Ariquemes,-9.9133,-63.0408,79.79,74,97,1.03,BR,2022-04-02 20:00:19
276,La Paz,-16.5,-68.15,52.25,66,89,3.56,BO,2022-04-02 20:03:12
277,Bandarbeyla,9.4942,50.8122,79.07,80,86,4.29,SO,2022-04-02 20:03:12
278,Ust-Barguzin,53.45,108.9833,34.0,79,100,13.47,RU,2022-04-02 20:03:13
279,Dimitrovgrad,54.2139,49.6184,45.41,91,100,15.12,RU,2022-04-02 20:03:13
280,Buala,-8.145,159.5921,79.56,83,99,7.0,SB,2022-04-02 20:03:13
281,Singaraja,-8.112,115.0882,78.33,81,55,3.4,ID,2022-04-02 20:03:06
282,Wadi Maliz,36.4681,8.5495,45.59,60,7,13.18,TN,2022-04-02 20:03:14
283,Tamandare,-8.7597,-35.1047,80.82,73,17,6.8,BR,2022-04-02 20:03:14
284,Saint-Leu,-21.15,55.2833,76.06,93,100,9.37,RE,2022-04-02 20:03:14
285,Clovis,36.8252,-119.7029,78.04,45,91,1.99,US,2022-04-02 20:00:13
286,Todos Santos,23.45,-110.2167,70.83,60,56,9.73,MX,2022-04-02 20:03:15
287,Sobolevo,54.4299,31.8996,30.2,95,100,17.09,RU,2022-04-02 20:03:15
288,Umm Lajj,25.0213,37.2685,83.8,29,5,5.17,SA,2022-04-02 20:03:16
289,Haapsalu,58.9431,23.5414,32.02,71,0,5.84,EE,2022-04-02 20:03:16
290,Bintulu,3.1667,113.0333,76.57,88,100,2.35,MY,2022-04-02 20:03:16
291,Saint Anthony,45.0205,-93.218,52.93,44,20,23.02,US,2022-04-02 20:03:17
292,Methoni,36.8197,21.7049,55.26,86,81,7.83,GR,2022-04-02 20:03:17
293,Broome,42.2506,-75.833,48.7,50,0,5.01,US,2022-04-02 20:03:17
294,Dillon,34.4166,-79.3712,72.03,39,34,5.53,US,2022-04-02 20:03:18
295,Dikson,73.5069,80.5464,-7.87,100,87,7.49,RU,2022-04-02 20:03:18
296,Keetmanshoop,-26.5833,18.1333,72.54,26,0,11.61,NA,2022-04-02 20:03:19
297,Lompoc,34.6391,-120.4579,72.01,75,100,10.36,US,2022-04-02 20:03:19
298,Eagle Pass,28.7091,-100.4995,87.28,44,8,1.1,US,2022-04-02 19:59:05
299,Vaitape,-16.5167,-151.75,81.5,76,53,9.13,PF,2022-04-02 20:03:20
300,Ossora,59.2353,163.0719,22.06,92,100,13.0,RU,2022-04-02 20:03:20
301,Zambezi,-13.5432,23.1047,67.37,86,61,5.1,ZM,2022-04-02 20:03:20
302,Honningsvag,70.9821,25.9704,29.95,80,100,24.16,NO,2022-04-02 20:03:21
303,Los Llanos De Aridane,28.6585,-17.9182,60.55,93,40,9.22,ES,2022-04-02 20:03:21
304,Bilma,18.6853,12.9164,86.9,5,99,6.76,NE,2022-04-02 20:03:21
305,Rossano,39.5751,16.6349,42.13,76,49,18.28,IT,2022-04-02 20:03:21
306,Gilgit,35.9221,74.3087,58.19,52,99,0.4,PK,2022-04-02 20:03:22
307,Franklin,39.9667,-83.0166,52.27,47,100,5.75,US,2022-04-02 20:03:20
308,Anito,12.4497,125.2886,77.25,84,91,9.73,PH,2022-04-02 20:03:22
309,Novovoronezh,51.3072,39.2173,53.91,75,58,16.15,RU,2022-04-02 20:03:23
310,Kangaatsiaq,68.3065,-53.4641,27.0,89,76,7.81,GL,2022-04-02 20:03:23
311,Kot Addu,30.4692,70.9671,82.35,7,0,10.96,PK,2022-04-02 20:03:23
312,Newport,51.5877,-2.9984,41.09,70,53,7.18,GB,2022-04-02 20:03:24
313,Mirpur Sakro,24.5474,67.6277,78.33,58,0,12.82,PK,2022-04-02 20:03:24
314,Cherskiy,68.75,161.3,-13.4,100,90,1.05,RU,2022-04-02 20:03:24
315,Samarai,-10.6167,150.6667,80.69,75,100,9.82,PG,2022-04-02 20:03:25
316,Gouyave,12.1646,-61.7296,78.84,73,27,19.93,GD,2022-04-02 20:03:25
317,Praia,14.9215,-23.5087,70.34,73,20,19.57,CV,2022-04-02 20:03:25
318,Alyangula,-13.8483,136.4192,81.52,69,91,10.13,AU,2022-04-02 20:03:25
319,Codajas,-3.8367,-62.0569,75.42,92,100,1.97,BR,2022-04-02 20:03:26
320,Iqaluit,63.7506,-68.5145,26.33,86,100,6.91,CA,2022-04-02 19:58:30
321,Ossipee,43.6854,-71.1167,49.91,31,8,11.01,US,2022-04-02 20:04:27
322,Calabozo,8.9242,-67.4293,99.9,23,27,6.71,VE,2022-04-02 20:04:28
323,Renfrew,55.872,-4.3925,42.75,63,63,4.61,GB,2022-04-02 20:04:28
324,North Bend,43.4065,-124.2243,61.25,85,0,8.05,US,2022-04-02 20:04:29
325,Ternovka,51.678,41.6375,54.91,67,3,16.73,RU,2022-04-02 20:04:29
326,Te Anau,-45.4167,167.7167,47.43,82,42,1.03,NZ,2022-04-02 20:04:29
327,Olinda,-8.0089,-34.8553,83.93,70,20,9.22,BR,2022-04-02 20:04:30
328,Moree,-29.4667,149.85,62.13,53,89,6.15,AU,2022-04-02 20:04:30
329,Neuquen,-38.9516,-68.0591,83.32,19,29,25.3,AR,2022-04-02 20:04:30
330,Abu Samrah,35.3029,37.1841,66.29,36,0,7.0,SY,2022-04-02 20:04:30
331,Balkhash,46.844,74.9804,39.94,67,5,8.12,KZ,2022-04-02 20:04:31
332,Sitka,57.0531,-135.33,46.29,53,100,20.71,US,2022-04-02 20:04:31
333,Kiboga,0.9161,31.7742,66.11,84,100,2.62,UG,2022-04-02 20:04:32
334,El Paso,31.8001,-106.2005,80.01,13,0,8.05,US,2022-04-02 20:02:02
335,Tarnos,43.5417,-1.4628,47.55,57,75,4.61,FR,2022-04-02 20:04:32
336,Sebeta,8.9167,38.6167,61.25,57,92,6.69,ET,2022-04-02 20:04:32
337,Torbay,47.6666,-52.7314,40.57,90,100,8.01,CA,2022-04-02 20:04:33
338,Aklavik,68.2191,-135.0107,-11.42,89,96,2.98,CA,2022-04-02 20:04:33
339,Kayerkan,69.3497,87.7602,1.35,97,99,5.55,RU,2022-04-02 20:04:33
340,Agutaya,11.148,120.9417,81.45,77,100,25.14,PH,2022-04-02 20:04:34
341,Truro,50.2653,-5.0544,40.28,93,20,10.36,GB,2022-04-02 20:00:25
342,Thunder Bay,48.4001,-89.3168,37.58,95,100,2.84,CA,2022-04-02 20:04:27
343,Estelle,29.8458,-90.1067,73.99,54,100,10.36,US,2022-04-02 20:04:34
344,Goure,13.9835,10.2704,85.87,6,93,8.63,NE,2022-04-02 20:04:35
345,Boyolangu,-8.1181,111.8935,74.97,90,97,0.89,ID,2022-04-02 20:04:35
346,Lagoa,39.05,-27.9833,58.89,70,53,11.63,PT,2022-04-02 20:04:35
347,Khandyga,62.6667,135.6,-6.57,93,66,4.16,RU,2022-04-02 20:04:36
348,Nikolayevka,53.1257,47.2041,52.11,71,100,17.4,RU,2022-04-02 20:04:36
349,Kuytun,54.3419,101.5036,29.07,80,100,12.48,RU,2022-04-02 20:04:36
350,Osorno,-40.5667,-73.15,53.26,86,100,7.2,CL,2022-04-02 20:03:54
351,Pangnirtung,66.1451,-65.7125,25.7,94,93,3.4,CA,2022-04-02 20:04:37
352,Broken Hill,-31.95,141.4333,54.77,62,7,4.7,AU,2022-04-02 20:04:37
353,Marawi,7.9986,124.2928,68.65,96,100,1.72,PH,2022-04-02 20:04:37
354,Jacareacanga,-6.2222,-57.7528,78.01,95,99,0.54,BR,2022-04-02 20:04:38
355,Vostok,46.4856,135.8833,19.54,86,14,6.73,RU,2022-04-02 20:04:38
356,Terney,45.0503,136.6092,33.69,61,6,6.46,RU,2022-04-02 20:04:38
357,Santa Cruz Cabralia,-16.2781,-39.0247,82.63,74,40,8.05,BR,2022-04-02 20:04:39
358,Mugur-Aksy,50.35,90.5,20.66,62,85,8.3,RU,2022-04-02 20:04:39
359,Kuah,6.3265,99.8432,79.83,78,100,5.55,MY,2022-04-02 20:04:39
360,Mayo,38.8876,-76.5119,59.67,46,0,14.0,US,2022-04-02 20:04:40
361,Salisbury,51.0693,-1.7957,39.69,70,88,5.59,GB,2022-04-02 20:04:40
362,Hasaki,35.7333,140.8333,43.2,67,100,11.56,JP,2022-04-02 20:04:40
363,Inyonga,-6.7167,32.0667,69.62,78,100,4.23,TZ,2022-04-02 20:04:41
364,Umm Kaddadah,13.6017,26.6876,82.02,13,34,12.53,SD,2022-04-02 20:04:41
365,Namibe,-15.1961,12.1522,71.29,83,100,5.97,AO,2022-04-02 20:04:41
366,Nizwa,22.9333,57.5333,78.66,26,8,5.46,OM,2022-04-02 20:04:42
367,Englewood,39.6478,-104.9878,67.91,28,75,8.05,US,2022-04-02 20:02:31
368,Codrington,-38.2667,141.9667,55.09,88,43,5.68,AU,2022-04-02 20:05:43
369,Sinnamary,5.3833,-52.95,78.82,85,95,14.61,GF,2022-04-02 20:05:44
370,Mpika,-11.8343,31.4529,63.48,95,100,3.69,ZM,2022-04-02 20:05:44
371,Yashkul,46.1711,45.3435,60.89,58,100,8.52,RU,2022-04-02 20:05:44
372,Ambon,-3.6954,128.1814,78.94,83,40,5.75,ID,2022-04-02 20:05:44
373,Saint John,45.2727,-66.0677,41.18,63,100,17.38,CA,2022-04-02 20:01:26
374,Karratha,-20.7377,116.8463,80.67,79,1,6.85,AU,2022-04-02 20:05:45
375,Chapais,49.7834,-74.8492,30.94,87,100,7.85,CA,2022-04-02 20:05:45
376,Kutum,14.2,24.6667,77.34,11,41,9.37,SD,2022-04-02 20:05:46
377,Mopipi,-21.1833,24.8833,79.38,36,0,3.94,BW,2022-04-02 20:05:46
378,Khapa,21.4333,78.9667,84.15,15,7,4.12,IN,2022-04-02 20:05:46
379,San Cristobal,7.7669,-72.225,80.78,43,21,5.68,VE,2022-04-02 20:05:47
380,Dunedin,-45.8742,170.5036,57.79,85,26,5.46,NZ,2022-04-02 20:05:02
381,Inuvik,68.3499,-133.7218,-11.47,92,98,3.36,CA,2022-04-02 20:05:47
382,Kumbo,6.2,10.6667,68.13,48,66,5.97,CM,2022-04-02 20:05:47
383,Poum,-20.2333,164.0167,81.48,82,100,7.78,NC,2022-04-02 20:05:48
384,Hamilton,39.1834,-84.5333,52.74,52,100,8.05,US,2022-04-02 20:03:52
385,Tecoanapa,16.5167,-98.75,85.17,45,95,11.14,MX,2022-04-02 20:05:48
386,Stornoway,58.2093,-6.3865,40.93,81,100,4.61,GB,2022-04-02 20:05:48
387,Sechura,-5.5569,-80.8222,83.12,56,69,15.82,PE,2022-04-02 20:05:49
388,Noumea,-22.2763,166.4572,82.0,99,78,10.87,NC,2022-04-02 20:01:33
389,Turukhansk,65.8167,87.9833,-0.49,100,91,2.37,RU,2022-04-02 20:05:49
390,Natal,-5.795,-35.2094,83.05,78,20,9.22,BR,2022-04-02 20:02:26
391,Itupiranga,-5.1347,-49.3267,89.92,89,31,3.94,BR,2022-04-02 20:05:50
392,Tairua,-37.0167,175.85,64.99,86,100,2.01,NZ,2022-04-02 20:05:50
393,Igarka,67.4667,86.5833,-7.55,100,100,2.77,RU,2022-04-02 20:05:50
394,Port Lavaca,28.615,-96.6261,88.12,52,0,9.22,US,2022-04-02 20:05:51
395,Dukat,62.55,155.55,-2.0,97,100,2.04,RU,2022-04-02 20:05:51
396,Wattegama,6.7989,81.4808,74.21,92,80,3.0,LK,2022-04-02 20:05:51
397,Husavik,66.0449,-17.3389,36.52,92,100,4.47,IS,2022-04-02 20:05:52
398,Ulety,51.3572,112.4849,32.67,70,77,6.33,RU,2022-04-02 20:05:52
399,Ugoofaaru,5.6667,73.0,82.69,71,4,2.1,MV,2022-04-02 20:05:52
400,Horta,38.5333,-28.6333,60.44,67,40,16.11,PT,2022-04-02 20:05:53
401,Batagay-Alyta,67.8006,130.4114,-10.62,97,89,5.32,RU,2022-04-02 20:05:53
402,Clyde,41.3042,-82.9752,50.18,44,100,9.57,US,2022-04-02 20:05:54
403,Rantepao,-2.9701,119.8978,64.72,96,100,3.36,ID,2022-04-02 20:05:54
404,Sidi Ali,36.0998,0.4206,48.43,53,97,8.86,DZ,2022-04-02 20:05:54
405,Lima,-12.0432,-77.0282,70.05,64,0,11.5,PE,2022-04-02 20:05:24
406,Gubskaya,44.3164,40.6358,53.46,76,100,2.77,RU,2022-04-02 20:05:55
407,Yabrud,33.9674,36.6574,60.89,30,100,1.92,SY,2022-04-02 20:05:55
408,Rodeo,38.033,-122.2669,79.12,50,32,5.01,US,2022-04-02 20:02:26
409,Bairiki,1.3292,172.9752,80.6,89,40,9.22,KI,2022-04-02 20:05:56
410,Le Mars,42.7942,-96.1656,56.71,35,20,11.5,US,2022-04-02 20:05:56
411,Buarcos,40.166,-8.8768,52.66,61,84,12.64,PT,2022-04-02 20:05:56
412,Kostino,58.9097,53.2691,25.09,92,100,7.31,RU,2022-04-02 20:06:58
413,Moose Factory,51.2585,-80.6094,34.45,99,100,3.91,CA,2022-04-02 20:03:34
414,Niquelandia,-14.4739,-48.4597,85.64,45,9,5.23,BR,2022-04-02 20:06:58
415,Arlit,18.7369,7.3853,91.42,3,100,7.36,NE,2022-04-02 20:02:20
416,Midland,31.9974,-102.0779,81.05,15,0,7.0,US,2022-04-02 20:02:52
417,Tezu,27.9167,96.1667,69.21,86,91,3.78,IN,2022-04-02 20:06:59
418,Dhari,21.3333,71.0167,77.76,56,0,8.19,IN,2022-04-02 20:06:59
419,Mattawa,46.7379,-119.9028,60.8,35,18,25.01,US,2022-04-02 20:06:59
420,Bay Roberts,47.5999,-53.2648,41.32,92,100,11.99,CA,2022-04-02 20:07:00
421,Arraial Do Cabo,-22.9661,-42.0278,76.86,88,75,10.36,BR,2022-04-02 20:07:00
422,Bereda,43.2686,-7.5406,41.58,79,3,5.55,ES,2022-04-02 20:07:00
423,Naryan-Mar,67.6713,53.087,-0.36,100,67,6.15,RU,2022-04-02 20:07:00
424,Pakxan,18.3778,103.6601,61.18,75,19,7.18,LA,2022-04-02 20:07:01
425,Riyadh,24.6877,46.7219,77.14,12,81,3.6,SA,2022-04-02 20:05:48
426,Kashi,39.4547,75.9797,58.03,30,100,2.93,CN,2022-04-02 20:07:01
427,Ouango,4.3133,22.5552,75.4,82,95,5.7,CF,2022-04-02 20:07:02
428,Lorengau,-2.0226,147.2712,78.53,85,100,5.61,PG,2022-04-02 20:07:02
429,Porosozero,62.7191,32.727,11.32,95,58,2.82,RU,2022-04-02 20:07:03
430,Zhangjiakou,40.81,114.8794,42.08,32,100,1.1,CN,2022-04-02 20:07:03
431,Tocantins,-10.5,-48.0,84.49,83,22,1.77,BR,2022-04-02 20:07:04
432,Whitefish,48.4111,-114.3376,44.42,92,100,18.41,US,2022-04-02 20:05:25
433,May Pen,17.9645,-77.2451,83.41,60,79,11.43,JM,2022-04-02 20:07:04
434,Berlevag,70.8578,29.0864,21.0,90,100,16.6,NO,2022-04-02 20:07:05
435,Vila Velha,-20.3297,-40.2925,84.15,77,20,12.66,BR,2022-04-02 20:07:05
436,Kaitangata,-46.2817,169.8464,50.52,89,31,7.14,NZ,2022-04-02 20:07:05
437,Yelizovo,53.1873,158.3805,26.74,58,75,6.71,RU,2022-04-02 20:07:06
438,Sept-Iles,50.2001,-66.3821,39.06,65,89,13.0,CA,2022-04-02 20:07:06
439,Mahbubabad,17.6167,80.0167,80.98,52,26,8.25,IN,2022-04-02 20:07:07
440,Murakami,38.2333,139.4833,35.73,77,12,3.62,JP,2022-04-02 20:07:07
441,Moyale,3.5167,39.0584,72.7,54,88,10.38,KE,2022-04-02 20:07:08
442,Ambilobe,-13.2,49.05,73.06,95,1,1.88,MG,2022-04-02 20:07:08
443,Ballina,-28.8667,153.5667,65.01,99,91,4.27,AU,2022-04-02 20:07:09
444,Rio Grande,-32.035,-52.0986,75.31,64,48,13.67,BR,2022-04-02 20:07:09
445,Yumen,40.2833,97.2,46.29,12,0,10.67,CN,2022-04-02 20:07:10
446,Talnakh,69.4865,88.3972,3.24,97,100,4.68,RU,2022-04-02 20:07:10
447,Guerrero Negro,27.9769,-114.0611,67.41,52,54,13.27,MX,2022-04-02 20:07:11
448,Manokwari,-0.8667,134.0833,78.84,81,100,5.26,ID,2022-04-02 20:07:11
449,Camargo,27.6667,-105.1667,83.62,8,0,3.06,MX,2022-04-02 20:07:11
450,Ponta Delgada,37.7333,-25.6667,61.52,67,20,10.36,PT,2022-04-02 20:07:13
451,Kruszwica,52.6756,18.3313,32.14,66,100,14.79,PL,2022-04-02 20:07:13
452,Rawson,-43.3002,-65.1023,79.99,25,9,17.72,AR,2022-04-02 20:07:14
453,Wick,58.4333,-3.0833,37.45,81,81,4.61,GB,2022-04-02 20:07:14
454,Saint-Augustin,51.226,-58.6502,32.58,97,100,12.8,CA,2022-04-02 20:07:14
455,Kampene,-3.6,26.6667,68.43,99,100,0.92,CD,2022-04-02 20:07:15
456,Uusikaupunki,60.8004,21.4084,31.12,74,98,12.44,FI,2022-04-02 20:08:16
457,Santa Rosalia,27.3167,-112.2833,72.99,43,38,7.16,MX,2022-04-02 20:08:17
458,Sola,-13.8833,167.55,80.11,79,100,11.18,VU,2022-04-02 20:08:17
459,Tazovskiy,67.4667,78.7,-2.97,100,90,6.15,RU,2022-04-02 20:08:18
460,Imbituba,-28.24,-48.6703,70.3,80,69,4.85,BR,2022-04-02 20:08:18
461,Sao Geraldo Do Araguaia,-6.4006,-48.555,82.35,89,75,2.17,BR,2022-04-02 20:08:18
462,Isangel,-19.55,169.2667,81.0,85,100,5.88,VU,2022-04-02 20:07:47
463,Sabya,17.1495,42.6254,81.63,64,0,4.56,SA,2022-04-02 20:08:19
464,Kologriv,58.8275,44.3178,28.69,96,100,10.83,RU,2022-04-02 20:08:19
465,Aci Castello,37.5583,15.1346,51.35,62,0,5.99,IT,2022-04-02 20:08:19
466,Tarko-Sale,64.9225,77.785,-3.77,100,90,5.77,RU,2022-04-02 20:08:20
467,Paamiut,61.994,-49.6678,33.6,92,59,2.71,GL,2022-04-02 20:08:20
468,Lazo,43.3817,133.9014,29.53,91,3,2.89,RU,2022-04-02 20:08:21
469,Hambantota,6.1241,81.1185,79.0,82,18,5.01,LK,2022-04-02 20:08:21
470,Corning,42.1428,-77.0547,51.6,40,0,4.61,US,2022-04-02 20:08:21
471,Boissevain,49.2306,-100.0559,34.65,54,14,8.14,CA,2022-04-02 20:08:22
472,Krasnozerskoye,53.9828,79.2374,33.53,100,100,8.14,RU,2022-04-02 20:08:22
473,Meadow Lake,34.8014,-106.5436,71.96,16,0,7.23,US,2022-04-02 20:08:23
474,Ketchikan,55.3422,-131.6461,40.98,99,100,9.84,US,2022-04-02 20:06:17
475,Pochutla,15.7432,-96.4661,91.81,28,5,9.6,MX,2022-04-02 20:08:23
476,Alekseyevka,50.6309,38.6903,53.64,78,44,18.57,RU,2022-04-02 20:08:23
477,Svarychiv,48.9622,24.1966,31.73,92,100,8.77,UA,2022-04-02 20:08:24
478,Ures,29.4333,-110.4,86.47,10,0,11.05,MX,2022-04-02 20:08:24
479,Conceicao Do Araguaia,-8.2578,-49.2647,80.67,86,29,4.34,BR,2022-04-02 20:08:24
480,Siocon,7.7061,122.1353,76.26,93,100,2.59,PH,2022-04-02 20:08:25
481,Belaya Gora,68.5333,146.4167,-7.06,98,100,2.53,RU,2022-04-02 20:08:25
482,At-Bashi,41.1702,75.8106,32.47,63,100,2.82,KG,2022-04-02 20:08:25
483,Portobelo,9.55,-79.65,86.49,74,28,10.4,PA,2022-04-02 20:08:26
484,Ndago,-4.6,34.35,65.5,76,99,6.82,TZ,2022-04-02 20:08:26
485,Chaah,2.249,103.048,74.52,96,86,1.23,MY,2022-04-02 20:08:27
486,Kirakira,-10.4544,161.9205,77.38,89,100,4.74,SB,2022-04-02 20:08:27
487,Guozhen,34.3659,107.359,48.81,55,0,1.57,CN,2022-04-02 20:08:27
488,Novi Iskar,42.8,23.35,46.83,66,20,4.61,BG,2022-04-02 20:08:24
489,Matelandia,-25.2408,-53.9964,72.97,82,88,2.62,BR,2022-04-02 20:08:28
490,Inhambane,-23.865,35.3833,76.78,77,2,8.88,MZ,2022-04-02 20:08:28
491,Casa Nova,-9.4167,-41.1333,85.17,51,100,9.98,BR,2022-04-02 20:05:21
492,Dongsheng,39.8161,109.9776,36.68,29,0,9.31,CN,2022-04-02 20:08:28
493,Viedma,-40.8135,-62.9967,81.12,17,7,24.96,AR,2022-04-02 20:08:29
494,Taltal,-25.4,-70.4833,66.56,68,22,4.41,CL,2022-04-02 20:08:29
495,Clearlake,38.9582,-122.6264,74.23,21,95,7.54,US,2022-04-02 20:08:29
496,Margate,51.3813,1.3862,40.69,58,6,5.99,GB,2022-04-02 20:07:18
497,Mogadishu,2.0371,45.3438,81.88,81,82,16.67,SO,2022-04-02 20:08:30
498,Guiratinga,-16.3494,-53.7583,79.93,75,95,4.07,BR,2022-04-02 20:08:30
499,Chino Valley,34.7575,-112.4538,74.68,22,0,8.99,US,2022-04-02 20:08:31
500,Sokoni,-6.4333,39.55,82.72,76,9,12.75,TZ,2022-04-02 20:04:46
501,The Valley,18.217,-63.0578,82.26,69,20,16.11,AI,2022-04-02 20:07:41
502,Nanakuli,21.3906,-158.1547,80.55,60,75,9.22,US,2022-04-02 20:08:32
503,Palu,-0.8917,119.8707,74.79,91,100,2.75,ID,2022-04-02 20:09:34
504,Saint-Ambroise,48.5501,-71.3324,35.89,75,81,11.03,CA,2022-04-02 20:09:34
505,Bhatkal,13.9667,74.5667,80.28,81,29,2.57,IN,2022-04-02 20:09:34
506,Krasnoselkup,65.7,82.4667,-4.23,100,71,6.22,RU,2022-04-02 20:09:35
507,Nikki,9.9401,3.2108,89.71,20,100,5.53,BJ,2022-04-02 20:09:35
508,Tome,-36.6167,-72.95,61.41,91,100,8.19,CL,2022-04-02 20:09:35
509,Salihorsk,52.7876,27.5415,32.38,98,100,13.65,BY,2022-04-02 20:09:36
510,Nishihara,26.1842,127.7558,63.68,86,100,6.91,JP,2022-04-02 20:09:36
511,Bikapur,26.6,82.1333,78.17,11,0,6.04,IN,2022-04-02 20:09:36
512,Bahir Dar,11.5936,37.3908,76.06,37,76,8.32,ET,2022-04-02 20:09:36
513,La Ronge,55.1001,-105.2842,29.5,84,99,5.46,CA,2022-04-02 20:09:37
514,Preobrazheniye,42.9019,133.9064,34.81,90,0,6.49,RU,2022-04-02 20:09:37
515,Semnan,35.5729,53.3971,64.76,24,1,1.57,IR,2022-04-02 20:09:37
516,Teahupoo,-17.8333,-149.2667,80.56,78,92,13.18,PF,2022-04-02 20:09:38
517,Nicoya,10.1483,-85.452,96.73,32,39,3.04,CR,2022-04-02 20:09:38
518,Rundu,-17.9333,19.7667,73.33,57,100,2.37,NA,2022-04-02 20:09:38
519,Son La,21.3167,103.9,52.5,88,37,1.74,VN,2022-04-02 20:09:39
520,Koppang,61.5706,11.0555,24.3,87,100,3.56,NO,2022-04-02 20:09:39
521,Sayat,38.7839,63.8803,66.29,22,0,8.1,TM,2022-04-02 20:09:39
522,Urucara,-2.5364,-57.76,83.79,80,100,1.21,BR,2022-04-02 20:09:40
523,Marquette,46.5333,-87.6335,39.36,73,100,3.71,US,2022-04-02 20:09:40
524,San Vito Dei Normanni,40.6573,17.7072,50.04,64,81,10.42,IT,2022-04-02 20:09:40
525,Alice Springs,-23.7,133.8833,54.95,54,96,4.61,AU,2022-04-02 20:09:41
526,New Ulm,44.3125,-94.4605,51.3,57,40,20.71,US,2022-04-02 20:09:41
527,Port Moresby,-9.4431,147.1797,75.42,80,95,2.8,PG,2022-04-02 20:09:42
528,Ardmore,34.1743,-97.1436,73.85,37,0,11.5,US,2022-04-02 20:09:42
529,Eyl,7.9803,49.8164,79.16,78,65,9.24,SO,2022-04-02 20:09:42
530,Poya,-21.35,165.15,78.8,89,98,3.33,NC,2022-04-02 20:09:43
531,Nabire,-3.3667,135.4833,74.93,86,83,5.26,ID,2022-04-02 20:09:43
532,Manacapuru,-3.2997,-60.6206,77.22,93,100,3.53,BR,2022-04-02 20:09:43
533,Houma,29.5958,-90.7195,75.0,66,40,11.5,US,2022-04-02 20:09:44
534,Muyezerskiy,63.9333,31.65,22.73,86,100,9.44,RU,2022-04-02 20:09:44
535,Ust-Tarka,55.5672,75.705,30.43,98,100,10.51,RU,2022-04-02 20:09:44
536,Plaridel,14.8872,120.8572,78.12,73,96,5.17,PH,2022-04-02 20:09:45
537,Verkhnyaya Inta,65.9811,60.3094,6.22,94,86,6.78,RU,2022-04-02 20:09:45
538,Bud,39.447,-86.1758,57.85,49,52,14.54,US,2022-04-02 20:09:45
539,Oistins,13.0667,-59.5333,82.49,61,75,26.46,BB,2022-04-02 20:07:09
540,Davila,18.4726,120.5763,77.18,82,100,23.44,PH,2022-04-02 20:09:46
541,San Jose,37.3394,-121.895,76.48,45,40,7.0,US,2022-04-02 20:08:32
542,Hazorasp,41.3194,61.0742,58.84,23,100,10.51,UZ,2022-04-02 20:09:46
543,Alihe,50.5667,123.7167,27.1,84,31,2.62,CN,2022-04-02 20:09:46
544,Ljungby,56.8332,13.9408,31.15,64,10,6.69,SE,2022-04-02 20:05:38
545,Burgeo,47.6167,-57.6152,33.35,96,100,25.01,CA,2022-04-02 20:09:47
546,Penzance,50.1186,-5.5371,42.4,83,75,8.72,GB,2022-04-02 20:09:47
547,Amapa,1.0,-52.0,76.26,97,100,3.87,BR,2022-04-02 20:09:48
548,Gladstone,-23.85,151.25,69.73,83,4,5.75,AU,2022-04-02 20:09:49
549,Huarmey,-10.0681,-78.1522,74.88,71,100,11.32,PE,2022-04-02 20:10:50
550,Saint-Paul,-21.0096,55.2707,77.11,93,100,0.87,RE,2022-04-02 20:10:51
551,Baykit,61.67,96.37,3.31,99,100,3.33,RU,2022-04-02 20:10:51
552,Sardarshahr,28.4333,74.4833,81.45,5,0,7.52,IN,2022-04-02 20:10:51
553,Morristown,36.214,-83.2949,62.33,35,20,14.97,US,2022-04-02 20:09:10
554,Canto Do Buriti,-8.11,-42.9444,85.24,57,79,6.06,BR,2022-04-02 20:10:52
555,Sao Gabriel,-30.3364,-54.32,75.0,52,0,8.3,BR,2022-04-02 20:06:09
556,Champerico,14.3,-91.9167,86.99,59,3,13.85,GT,2022-04-02 20:10:52
557,Ust-Kuyga,70.0167,135.6,-17.03,98,47,1.07,RU,2022-04-02 20:10:53
558,Elko,41.0002,-115.5012,60.82,29,24,4.0,US,2022-04-02 20:10:53
559,Kaka,37.3482,59.6143,65.41,25,2,12.37,TM,2022-04-02 20:10:44
560,Itinga,-16.6131,-41.7653,91.2,29,10,9.4,BR,2022-04-02 20:10:53
561,Sorong,-0.8833,131.25,79.61,81,100,5.48,ID,2022-04-02 20:10:54
562,Kouroussa,10.65,-9.8833,92.46,26,83,4.94,GN,2022-04-02 20:10:54
563,Elmira,42.0898,-76.8077,49.01,39,0,4.61,US,2022-04-02 20:10:54
564,Belmonte,-15.8631,-38.8828,80.19,72,8,6.26,BR,2022-04-02 20:10:55
565,Necochea,-38.5473,-58.7368,68.94,45,0,18.16,AR,2022-04-02 20:10:55
566,Valleyview,55.0667,-117.2859,44.51,39,9,15.35,CA,2022-04-02 20:10:55
567,Seddon,-37.8068,144.8916,60.21,86,100,8.05,AU,2022-04-02 20:10:56
568,Pyaozerskiy,65.8333,31.1667,23.74,95,100,9.78,RU,2022-04-02 20:10:56
569,Kismayo,-0.3582,42.5454,81.1,76,59,12.46,SO,2022-04-02 20:10:56
570,Kudat,6.8837,116.8477,78.31,84,100,3.18,MY,2022-04-02 20:10:57
571,Jilib,0.4883,42.7854,80.13,75,59,8.1,SO,2022-04-02 20:07:48
572,Mpanda,-6.3655,31.0409,67.71,85,96,1.9,TZ,2022-04-02 20:10:51
573,Sabang,5.8933,95.3214,81.59,74,100,4.74,ID,2022-04-02 20:10:57
574,Adrar,20.5022,-10.0711,84.63,12,28,8.48,MR,2022-04-02 20:10:58
575,Zinder,13.8072,8.9881,88.14,6,100,8.63,NE,2022-04-02 20:10:58
576,Pandamatenga,-18.5278,25.627,67.98,64,11,6.02,BW,2022-04-02 20:10:58
577,Vestmanna,62.1564,-7.1664,41.92,87,100,12.66,FO,2022-04-02 20:10:59
578,Chernyshevskiy,63.0128,112.4714,-11.7,100,100,3.0,RU,2022-04-02 20:10:59
579,Simpang,-1.2667,104.0833,75.6,89,44,0.09,ID,2022-04-02 20:10:59
580,Bagnols-Sur-Ceze,44.1599,4.6178,41.22,58,100,25.32,FR,2022-04-02 20:11:00
581,Sungairaya,0.7,108.9,78.31,83,38,0.65,ID,2022-04-02 20:11:00
582,Faya,18.3851,42.4509,63.12,22,0,6.78,SA,2022-04-02 20:11:00
583,Labrea,-7.2586,-64.7981,70.25,96,100,2.46,BR,2022-04-02 20:11:01
584,Pringsewu,-5.3582,104.9744,72.59,98,72,3.11,ID,2022-04-02 20:11:01
585,Llangefni,53.2556,-4.3106,40.78,75,1,8.05,GB,2022-04-02 20:11:02
586,Ler,8.3018,30.1418,92.52,29,100,2.77,SS,2022-04-02 20:11:02
587,Pyatnitskoye,50.4233,37.8273,52.41,84,84,17.81,RU,2022-04-02 20:11:02
588,West Bay,19.3667,-81.4167,86.07,66,20,9.22,KY,2022-04-02 20:11:03
589,Chara,56.9064,118.2631,23.02,93,100,0.36,RU,2022-04-02 20:11:03
590,Ulaanbaatar,47.9077,106.8832,34.57,28,41,2.86,MN,2022-04-02 20:06:57
591,Coquimbo,-29.9533,-71.3436,62.33,72,20,9.22,CL,2022-04-02 20:11:04
592,Jos,9.9167,8.9,78.12,10,100,3.22,NG,2022-04-02 20:11:04
593,Frome,51.2283,-2.3221,41.04,81,13,4.34,GB,2022-04-02 20:11:04
594,Okha,53.5739,142.9478,13.06,94,76,5.03,RU,2022-04-02 20:12:05
595,Piacabucu,-10.4056,-36.4344,79.9,77,25,9.91,BR,2022-04-02 20:12:05
596,Plattsburgh,44.6995,-73.4529,48.42,29,0,5.75,US,2022-04-02 20:12:05
597,Alamor,-4.0181,-80.0197,69.03,86,94,3.33,EC,2022-04-02 20:12:06
598,Yankton,42.8711,-97.3973,60.12,26,20,17.27,US,2022-04-02 20:12:06
599,Guiyang,26.5833,106.7167,45.07,80,0,2.89,CN,2022-04-02 20:12:06
600,Contai,21.7786,87.7536,78.78,90,14,13.35,IN,2022-04-02 20:12:07
601,Nantucket,41.2835,-70.0995,55.51,40,0,16.11,US,2022-04-02 20:07:18
602,Leh,34.1667,77.5833,26.02,67,2,3.04,IN,2022-04-02 20:09:18
603,Chifeng,42.2683,118.9636,40.8,31,29,7.05,CN,2022-04-02 20:12:08
604,Vao,-22.6667,167.4833,79.03,87,80,19.22,NC,2022-04-02 20:12:08
605,Beloha,-25.1667,45.05,71.83,65,0,4.36,MG,2022-04-02 20:12:08
606,Udimskiy,61.1417,45.9144,16.54,95,100,5.44,RU,2022-04-02 20:12:08
607,Koppal,15.35,76.15,81.21,60,14,10.13,IN,2022-04-02 20:12:09
608,Igrejinha,-29.5744,-50.7903,76.68,63,75,4.0,BR,2022-04-02 20:09:13
609,Khani,41.9563,42.9566,56.77,82,22,8.93,GE,2022-04-02 20:12:09
610,Dakar,14.6937,-17.4441,72.48,83,24,15.52,SN,2022-04-02 20:12:10
611,Axim,4.8699,-2.2405,80.37,86,90,6.15,GH,2022-04-02 20:12:10
612,Ndele,8.4109,20.6473,86.18,19,50,0.92,CF,2022-04-02 20:12:10
613,Maragogi,-9.0122,-35.2225,80.11,76,14,6.46,BR,2022-04-02 20:12:11
614,Blairmore,49.6,-114.4353,44.92,48,91,14.61,CA,2022-04-02 20:12:11
615,Zhongshan,21.3226,110.5829,58.53,83,76,6.64,CN,2022-04-02 20:12:12
616,Villablino,42.9393,-6.3194,28.65,94,25,4.29,ES,2022-04-02 20:12:12
617,Vondrozo,-22.8167,47.2833,63.3,98,7,2.66,MG,2022-04-02 20:12:12
618,Shimoda,34.6667,138.95,45.1,82,100,9.1,JP,2022-04-02 20:12:13
619,Venice,27.0998,-82.4543,83.26,90,0,10.36,US,2022-04-02 20:11:15
620,Morondava,-20.2833,44.2833,79.39,75,0,7.99,MG,2022-04-02 20:12:13
621,Niamey,13.5137,2.1098,92.5,12,100,2.19,NE,2022-04-02 20:12:14
622,Sungaipenuh,-2.0833,101.3833,62.08,87,92,1.63,ID,2022-04-02 20:07:19
623,Fenoarivo Atsinanana,-17.3667,49.4167,73.11,91,16,6.33,MG,2022-04-02 20:12:14
624,Foca,38.6703,26.7566,62.47,76,0,20.31,TR,2022-04-02 20:09:18
625,Antofagasta,-23.65,-70.4,67.28,67,2,7.56,CL,2022-04-02 20:12:15
626,Killybegs,54.6333,-8.45,42.49,74,8,8.03,IE,2022-04-02 20:12:15
627,Chicama,-7.8447,-79.1469,68.54,61,94,11.59,PE,2022-04-02 20:12:15
628,Whitianga,-36.8333,175.7,64.9,88,100,2.57,NZ,2022-04-02 20:12:16
629,Ola,59.5833,151.2833,13.24,81,100,5.53,RU,2022-04-02 20:12:16
630,Batticaloa,7.7102,81.6924,78.84,83,77,8.79,LK,2022-04-02 20:12:16
631,Savannah Bight,16.45,-85.85,81.27,80,0,23.6,HN,2022-04-02 20:12:17
632,Severnoye,56.3491,78.3619,27.09,97,100,5.06,RU,2022-04-02 20:12:17
633,Roswell,34.0232,-84.3616,65.68,42,75,4.61,US,2022-04-02 20:12:17
634,Dicabisagan,17.0818,122.4157,76.64,81,94,5.06,PH,2022-04-02 20:12:18
635,Tomatlan,19.9333,-105.25,89.87,33,2,10.2,MX,2022-04-02 20:12:18
636,Quatre Cocos,-20.2078,57.7625,74.08,86,100,16.8,MU,2022-04-02 20:12:18
637,Sigli,5.3848,95.9609,79.11,83,100,3.94,ID,2022-04-02 20:12:20
638,Voh,-20.9667,164.7,78.21,91,100,4.23,NC,2022-04-02 20:12:20
639,Braco Do Norte,-28.275,-49.1656,70.56,83,72,3.24,BR,2022-04-02 20:12:21
640,Ostrovnoy,68.0531,39.5131,15.85,92,80,15.43,RU,2022-04-02 20:12:21
641,Kyaikkami,16.08,97.5675,78.37,68,55,8.57,MM,2022-04-02 20:13:22
642,Halifax,44.6453,-63.5724,40.68,70,100,10.0,CA,2022-04-02 20:09:56
643,Nampula,-15.1165,39.2666,68.54,98,1,2.15,MZ,2022-04-02 20:13:23
644,Yerbogachen,61.2767,108.0108,5.54,97,96,6.11,RU,2022-04-02 20:12:12
645,Fujin,47.26,132.0322,35.2,63,7,9.15,CN,2022-04-02 20:13:23
646,Mandera,3.9366,41.867,90.57,28,92,11.52,KE,2022-04-02 20:10:40
647,Tual,-5.6667,132.75,82.0,65,100,4.72,ID,2022-04-02 20:13:24
648,Balakovo,52.0278,47.8007,50.76,75,100,13.58,RU,2022-04-02 20:13:24
649,Giyani,-23.3025,30.7187,74.23,60,0,4.54,ZA,2022-04-02 20:13:25
650,Colquechaca,-18.6667,-66.0167,41.41,63,91,6.11,BO,2022-04-02 20:13:25
651,Izhma,65.0083,53.9113,5.25,98,56,3.69,RU,2022-04-02 20:13:25
652,Bambanglipuro,-7.95,110.2833,76.1,86,96,2.37,ID,2022-04-02 20:13:26
653,Dumai,1.6833,101.45,73.98,98,69,3.65,ID,2022-04-02 20:13:26
654,Shasta Lake,40.6804,-122.3708,71.96,20,15,1.99,US,2022-04-02 20:13:26
655,Urambo,-5.0667,32.05,68.7,74,52,2.62,TZ,2022-04-02 20:13:27
656,Progreso,21.2833,-89.6667,98.71,49,94,11.63,MX,2022-04-02 20:13:27
657,Dunmore,41.4198,-75.6324,52.45,43,0,4.61,US,2022-04-02 20:13:27
658,Gagino,55.2314,45.0339,39.04,100,100,11.45,RU,2022-04-02 20:13:28
659,San Luis,-33.295,-66.3356,73.36,26,0,13.98,AR,2022-04-02 20:13:28
660,Mislinja,46.4411,15.1956,33.3,93,100,3.11,SI,2022-04-02 20:13:28
661,Nagtipunan,16.2167,121.6,72.03,98,98,1.68,PH,2022-04-02 20:13:29
662,Mount Isa,-20.7333,139.5,74.97,25,0,10.36,AU,2022-04-02 20:13:29
663,Alappuzha,9.49,76.3264,80.35,82,25,3.69,IN,2022-04-02 20:09:17
664,Deputatskiy,69.3,139.9,-20.99,100,100,2.01,RU,2022-04-02 20:13:29
665,Daugavpils,55.8833,26.5333,28.9,73,100,10.87,LV,2022-04-02 20:13:30
666,Mandalgovi,45.7625,106.2708,37.45,20,46,8.63,MN,2022-04-02 20:13:30
667,Koygorodok,60.445,50.9968,24.28,86,100,7.58,RU,2022-04-02 20:13:30
668,Clyde River,70.4692,-68.5914,14.45,91,100,6.35,CA,2022-04-02 20:13:31
669,Prince George,53.9166,-122.753,46.29,46,94,3.0,CA,2022-04-02 20:13:31
670,Saryg-Sep,51.5,95.6,22.44,96,100,1.86,RU,2022-04-02 20:13:31
671,Babu,24.4167,111.5167,50.0,86,1,3.15,CN,2022-04-02 20:13:32
672,Kirkenes,69.7271,30.0458,18.55,73,99,2.3,NO,2022-04-02 20:13:32
673,Angoche,-16.2325,39.9086,78.35,75,0,4.18,MZ,2022-04-02 20:13:32
674,Taperoa,-7.2075,-36.8267,81.91,55,65,14.7,BR,2022-04-02 20:13:33
675,Cervo,43.6702,-7.4101,49.96,67,8,8.59,ES,2022-04-02 20:11:40
676,Jumla,29.2747,82.1838,47.5,68,0,4.45,NP,2022-04-02 20:13:33
677,Mayuge,0.4597,33.4803,71.71,76,100,3.18,UG,2022-04-02 20:10:54
678,Nago,26.5881,127.9761,61.65,78,100,8.75,JP,2022-04-02 20:13:34
679,Malabo,3.75,8.7833,81.7,80,9,3.67,GQ,2022-04-02 20:13:34
680,Bembereke,10.2283,2.6634,90.36,20,99,1.5,BJ,2022-04-02 20:13:35
681,Gainesville,29.6516,-82.3248,63.91,88,75,8.05,US,2022-04-02 20:09:13
682,Kaeo,-35.1,173.7833,62.33,97,100,2.17,NZ,2022-04-02 20:13:35
683,Toamasina,-18.1667,49.3833,73.29,90,15,9.93,MG,2022-04-02 20:13:35
684,Qingdao,36.0986,120.3719,46.29,71,0,4.47,CN,2022-04-02 20:13:36
685,Canutama,-6.5339,-64.3831,69.69,99,100,1.72,BR,2022-04-02 20:13:36
686,Sayansk,54.1088,102.1648,30.9,90,100,11.59,RU,2022-04-02 20:13:36
687,Majene,-3.5403,118.9707,77.05,86,87,2.75,ID,2022-04-02 20:14:37
688,Hay River,60.8156,-115.7999,6.22,84,100,6.08,CA,2022-04-02 20:14:37
689,Marzuq,14.4,46.4667,70.45,36,1,5.7,YE,2022-04-02 20:14:37
690,Nioro,13.35,-15.75,81.73,34,8,13.4,GM,2022-04-02 20:14:38
